{
    "rows": [
        {
            "id": "1",
            "name": "Unit 1",
            "location": {
                "street": "28, Parliment Road",
                "city": "Bangalore",
                "state": "Telangana",
                "country": "India",
                "postalCode": "110132",
                "latitude": 28.5985,
                "longitude": 77.2140
            },
            "unitContact": "Suren Narain 1",
            "unitContactEmail": "surennarain1@sbu.com"
        },
        {
            "id": "2",
            "name": "Unit 2",
            "location": {
                "street": "32, Parliment Road",
                "city": "Delhi",
                "state": "Delhi",
                "country": "India",
                "postalCode": "110001",
                "latitude": 28.6130,
                "longitude": 77.2090
            },
            "unitContact": "Natriken 2",
            "unitContactEmail": "natriken2@sbu.com"
        },
        {
            "id": "3",
            "name": "Unit 3",
            "location": {
                "street": "15, Parliment Road",
                "city": "Mumbai",
                "state": "Maharashtra",
                "country": "India",
                "postalCode": "400001",
                "latitude": 19.0760,
                "longitude": 72.8777
            },
            "unitContact": "Lavish",
            "unitContactEmail": "lavish@sbu.com"
        },
        {
            "id": "4",
            "name": "Unit 4",
            "location": {
                "street": "45, Parliment Road",
                "city": "Chennai",
                "state": "Tamil Nadu",
                "country": "India",
                "postalCode": "600001",
                "latitude": 13.0827,
                "longitude": 80.2707
            },
            "unitContact": "Suresh Bhosle",
            "unitContactEmail": "sureshbhosle@sbu.com"
        },
        {
            "id": "5",
            "name": "Unit 5",
            "location": {
                "street": "78, Parliment Road",
                "city": "Hyderabad",
                "state": "Telangana",
                "country": "India",
                "postalCode": "500001",
                "latitude": 17.3850,
                "longitude": 78.4867
            },
            "unitContact": "Jatin",
            "unitContactEmail": "jatin@sbu.com"
        },
        {
            "id": "6",
            "name": "Unit 6",
            "location": {
                "street": "67, Parliment Road",
                "city": "Kolkata",
                "state": "West Bengal",
                "country": "India",
                "postalCode": "700001",
                "latitude": 22.5726,
                "longitude": 88.3639
            },
            "unitContact": "Suraj K",
            "unitContactEmail": "surajk@sbu.com"
        },
        {
            "id": "7",
            "name": "Unit 7",
            "location": {
                "street": "92, Parliment Road",
                "city": "Bangalore",
                "state": "Karnataka",
                "country": "India",
                "postalCode": "560001",
                "latitude": 12.9716,
                "longitude": 77.5946
            },
            "unitContact": "Vasantham",
            "unitContactEmail": "vasantham@sbu.com"
        },
        {
            "id": "8",
            "name": "Unit 8",
            "location": {
                "street": "50, Parliment Road",
                "city": "Delhi",
                "state": "Delhi",
                "country": "India",
                "postalCode": "110003",
                "latitude": 28.6100,
                "longitude": 77.2100
            },
            "unitContact": "Mithun",
            "unitContactEmail": "mithun@sbu.com"
        },
        {
            "id": "9",
            "name": "Unit 9",
            "location": {
                "street": "25, Parliment Road",
                "city": "Mumbai",
                "state": "Maharashtra",
                "country": "India",
                "postalCode": "400002",
                "latitude": 19.0760,
                "longitude": 72.8777
            },
            "unitContact": "Sunny H",
            "unitContactEmail": "sunnyh@sbu.com"
        },
        {
            "id": "10",
            "name": "Unit 10",
            "location": {
                "street": "1, Parliment Road",
                "city": "Chennai",
                "state": "Tamil Nadu",
                "country": "India",
                "postalCode": "600002",
                "latitude": 13.0827,
                "longitude": 80.2707
            },
            "unitContact": "Farah",
            "unitContactEmail": "farah@sbu.com"
        },
        {
            "id": "11",
            "name": "Unit 11",
            "location": {
                "street": "38, Parliment Road",
                "city": "Hyderabad",
                "state": "Telangana",
                "country": "India",
                "postalCode": "500002",
                "latitude": 17.3850,
                "longitude": 78.4867
            },
            "unitContact": "Laurren",
            "unitContactEmail": "laurren@sbu.com"
        },
        {
            "id": "12",
            "name": "Unit 12",
            "location": {
                "street": "70, Parliment Road",
                "city": "Kolkata",
                "state": "West Bengal",
                "country": "India",
                "postalCode": "700002",
                "latitude": 22.5726,
                "longitude": 88.3639
            },
            "unitContact": "Suren Narain 12",
            "unitContactEmail": "surennarain12@sbu.com"
        },
        {
            "id": "13",
            "name": "Unit 13",
            "location": {
                "street": "12, Parliment Road",
                "city": "Bangalore",
                "state": "Karnataka",
                "country": "India",
                "postalCode": "560002",
                "latitude": 12.9716,
                "longitude": 77.5946
            },
            "unitContact": "Suren Narain 13",
            "unitContactEmail": "surennarain13@sbu.com"
        },
        {
            "id": "14",
            "name": "Unit 14",
            "location": {
                "street": "30, Parliment Road",
                "city": "Delhi",
                "state": "Delhi",
                "country": "India",
                "postalCode": "110004",
                "latitude": 28.6100,
                "longitude": 77.2100
            },
            "unitContact": "Suren Narain 14",
            "unitContactEmail": "surennarain14@sbu.com"
        },
        {
            "id": "15",
            "name": "Unit 15",
            "location": {
                "street": "88, Parliment Road",
                "city": "Mumbai",
                "state": "Maharashtra",
                "country": "India",
                "postalCode": "400003",
                "latitude": 19.0760,
                "longitude": 72.8777
            },
            "unitContact": "Suren Narain 15",
            "unitContactEmail": "surennarain15@sbu.com"
        },
        {
            "id": "16",
            "name": "Unit 16",
            "location": {
                "street": "21, Parliment Road",
                "city": "Chennai",
                "state": "Tamil Nadu",
                "country": "India",
                "postalCode": "600003",
                "latitude": 13.0827,
                "longitude": 80.2707
            },
            "unitContact": "Suren Narain 16",
            "unitContactEmail": "surennarain16@sbu.com"
        },
        {
            "id": "17",
            "name": "Unit 17",
            "location": {
                "street": "9, Parliment Road",
                "city": "Hyderabad",
                "state": "Telangana",
                "country": "India",
                "postalCode": "500003",
                "latitude": 17.3850,
                "longitude": 78.4867
            },
            "unitContact": "Suren Narain 17",
            "unitContactEmail": "surennarain17@sbu.com"
        },
        {
            "id": "18",
            "name": "Unit 18",
            "location": {
                "street": "80, Parliment Road",
                "city": "Kolkata",
                "state": "West Bengal",
                "country": "India",
                "postalCode": "700003",
                "latitude": 22.5726,
                "longitude": 88.3639
            },
            "unitContact": "Suren Narain 18",
            "unitContactEmail": "surennarain18@sbu.com"
        },
        {
            "id": "19",
            "name": "Unit 19",
            "location": {
                "street": "66, Parliment Road",
                "city": "Bangalore",
                "state": "Karnataka",
                "country": "India",
                "postalCode": "560003",
                "latitude": 12.9716,
                "longitude": 77.5946
            },
            "unitContact": "Suren Narain 19",
            "unitContactEmail": "surennarain19@sbu.com"
        },
        {
            "id": "20",
            "name": "Unit 20",
            "location": {
                "street": "34, Parliment Road",
                "city": "Delhi",
                "state": "Delhi",
                "country": "India",
                "postalCode": "110005",
                "latitude": 28.6100,
                "longitude": 77.2100
            },
            "unitContact": "Suren Narain 20",
            "unitContactEmail": "surennarain20@sbu.com"
        }
    ]
}